[{
  "searchString": "atm",
  "rank": 1,
  "searchPageUrl": "https://www.google.com/maps/search/atm/@10.821089318561162,106.79743596489031,16z?hl=vi",
  "isAdvertisement": false,
  "title": "QQ88",
  "price": null,
  "categoryName": "ATM",
  "address": "561 Võ Văn Hát, Trường Thạnh, Quận 9, Hồ Chí Minh, Việt Nam",
  "neighborhood": "Trường Thạnh, Quận 9",
  "street": "561 Võ Văn Hát",
  "city": "Hồ Chí Minh",
  "postalCode": null,
  "state": "Quận 9, Hồ Chí Minh",
  "countryCode": "VN",
  "website": "https://qq88.social/",
  "claimThisBusiness": false,
  "location": {
    "lat": 10.8230786,
    "lng": 106.8077793
  },
  "permanentlyClosed": false,
  "temporarilyClosed": false,
  "placeId": "ChIJdfHSYQ2DdjER1IpyT32p7Fc",
  "categories": [
    "ATM"
  ],
  "fid": "0x3176830d61d2f175:0x57eca97d4f728ad4",
  "cid": "6335625131472358100",
  "reviewsCount": 0,
  "imagesCount": null,
  "imageCategories": [],
  "scrapedAt": "2024-12-24T14:20:19.537Z",
  "googleFoodUrl": null,
  "hotelAds": [],
  "openingHours": [
    {
      "day": "Thứ Ba",
      "hours": "08:00 to 16:30"
    },
    {
      "day": "Thứ Tư",
      "hours": "08:00 to 16:30"
    },
    {
      "day": "Thứ Năm",
      "hours": "08:00 to 16:30"
    },
    {
      "day": "Thứ Sáu",
      "hours": "08:00 to 16:30"
    },
    {
      "day": "Thứ Bảy",
      "hours": "Đóng cửa"
    },
    {
      "day": "Chủ Nhật",
      "hours": "Đóng cửa"
    },
    {
      "day": "Thứ Hai",
      "hours": "08:00 to 16:30"
    }
  ],
  "peopleAlsoSearch": [],
  "placesTags": [],
  "reviewsTags": [],
  "gasPrices": [],
  "url": "https://www.google.com/maps/search/?api=1&query=QQ88&query_place_id=ChIJdfHSYQ2DdjER1IpyT32p7Fc",
  "kgmid": "/g/11y4nx3_dg"
},
{
  "searchString": "atm",
  "rank": 3,
  "searchPageUrl": "https://www.google.com/maps/search/atm/@10.821089318561162,106.79743596489031,16z?hl=vi",
  "isAdvertisement": false,
  "title": "TPBank LiveBank Liên Phường Quận 9",
  "price": null,
  "categoryName": "ATM",
  "address": "Số 440 Đ. Liên Phường, phường, Quận 9, Hồ Chí Minh, Việt Nam",
  "neighborhood": "phường, Quận 9",
  "street": "Số 440 Đ. Liên Phường",
  "city": "Hồ Chí Minh",
  "postalCode": null,
  "state": "Quận 9, Hồ Chí Minh",
  "countryCode": "VN",
  "phone": "+84 1900 585885",
  "phoneUnformatted": "+841900585885",
  "claimThisBusiness": false,
  "location": {
    "lat": 10.8060934,
    "lng": 106.7894332
  },
  "totalScore": 3.9,
  "permanentlyClosed": false,
  "temporarilyClosed": false,
  "placeId": "ChIJH92bkY8ndTERFtxQlE_7JCU",
  "categories": [
    "ATM",
    "Ngân hàng"
  ],
  "fid": "0x3175278f919bdd1f:0x2524fb4f9450dc16",
  "cid": "2676540397774232598",
  "reviewsCount": 8,
  "imagesCount": 5,
  "imageCategories": [],
  "scrapedAt": "2024-12-24T14:20:19.539Z",
  "googleFoodUrl": null,
  "hotelAds": [],
  "openingHours": [
    {
      "day": "Thứ Ba",
      "hours": "Mở cửa cả ngày"
    },
    {
      "day": "Thứ Tư",
      "hours": "Mở cửa cả ngày"
    },
    {
      "day": "Thứ Năm",
      "hours": "Mở cửa cả ngày"
    },
    {
      "day": "Thứ Sáu",
      "hours": "Mở cửa cả ngày"
    },
    {
      "day": "Thứ Bảy",
      "hours": "Mở cửa cả ngày"
    },
    {
      "day": "Chủ Nhật",
      "hours": "Mở cửa cả ngày"
    },
    {
      "day": "Thứ Hai",
      "hours": "Mở cửa cả ngày"
    }
  ],
  "peopleAlsoSearch": [],
  "placesTags": [],
  "reviewsTags": [],
  "gasPrices": [],
  "url": "https://www.google.com/maps/search/?api=1&query=TPBank%20LiveBank%20Li%C3%AAn%20Ph%C6%B0%E1%BB%9Dng%20Qu%E1%BA%ADn%209&query_place_id=ChIJH92bkY8ndTERFtxQlE_7JCU",
  "imageUrl": "https://lh5.googleusercontent.com/p/AF1QipMK73IWbma1AvvNkz1ROzvR_zgtTCGX_R_mEcJi=w426-h240-k-no",
  "kgmid": "/g/11rww_x10v"
},
{
  "searchString": "atm",
  "rank": 5,
  "searchPageUrl": "https://www.google.com/maps/search/atm/@10.821089318561162,106.79743596489031,16z?hl=vi",
  "isAdvertisement": false,
  "title": "TPBank LiveBank The Art Gia Hòa Quận 9",
  "price": null,
  "categoryName": "ATM",
  "address": "Chung cư The Art, Gia Hòa/532A Đỗ Xuân Hợp, Phước Long B, Quận 9, Hồ Chí Minh, Việt Nam",
  "neighborhood": "Phước Long B, Quận 9",
  "street": "Chung cư The Art, Gia Hòa/532A Đỗ Xuân Hợp",
  "city": "Hồ Chí Minh",
  "postalCode": null,
  "state": "Quận 9, Hồ Chí Minh",
  "countryCode": "VN",
  "phone": "+84 1900 585885",
  "phoneUnformatted": "+841900585885",
  "claimThisBusiness": false,
  "location": {
    "lat": 10.8150251,
    "lng": 106.7772535
  },
  "totalScore": 5,
  "permanentlyClosed": false,
  "temporarilyClosed": false,
  "placeId": "ChIJSaBoT9MndTER71ClDvXVkmw",
  "categories": [
    "ATM",
    "Ngân hàng"
  ],
  "fid": "0x317527d34f68a049:0x6c92d5f50ea550ef",
  "cid": "7823550751185391855",
  "reviewsCount": 2,
  "imagesCount": null,
  "imageCategories": [],
  "scrapedAt": "2024-12-24T14:20:19.539Z",
  "googleFoodUrl": null,
  "hotelAds": [],
  "openingHours": [
    {
      "day": "Thứ Ba",
      "hours": "Mở cửa cả ngày"
    },
    {
      "day": "Thứ Tư",
      "hours": "Mở cửa cả ngày"
    },
    {
      "day": "Thứ Năm",
      "hours": "Mở cửa cả ngày"
    },
    {
      "day": "Thứ Sáu",
      "hours": "Mở cửa cả ngày"
    },
    {
      "day": "Thứ Bảy",
      "hours": "Mở cửa cả ngày"
    },
    {
      "day": "Chủ Nhật",
      "hours": "Mở cửa cả ngày"
    },
    {
      "day": "Thứ Hai",
      "hours": "Mở cửa cả ngày"
    }
  ],
  "peopleAlsoSearch": [],
  "placesTags": [],
  "reviewsTags": [],
  "gasPrices": [],
  "url": "https://www.google.com/maps/search/?api=1&query=TPBank%20LiveBank%20The%20Art%20Gia%20H%C3%B2a%20Qu%E1%BA%ADn%209&query_place_id=ChIJSaBoT9MndTER71ClDvXVkmw",
  "kgmid": "/g/11rxhvfg6t"
},
{
  "searchString": "atm",
  "rank": 7,
  "searchPageUrl": "https://www.google.com/maps/search/atm/@10.821089318561162,106.79743596489031,16z?hl=vi",
  "isAdvertisement": false,
  "title": "ATM TP LiveBank FPT",
  "price": null,
  "categoryName": "ATM",
  "address": "ĐH FPT, Đ. D1, P, Quận 9, Hồ Chí Minh, Việt Nam",
  "neighborhood": "P, Quận 9",
  "street": "ĐH FPT, Đ. D1",
  "city": "Hồ Chí Minh",
  "postalCode": null,
  "state": "Quận 9, Hồ Chí Minh",
  "countryCode": "VN",
  "phone": "+84 1900 585885",
  "phoneUnformatted": "+841900585885",
  "claimThisBusiness": false,
  "location": {
    "lat": 10.8408889,
    "lng": 106.8101463
  },
  "totalScore": 5,
  "permanentlyClosed": false,
  "temporarilyClosed": false,
  "placeId": "ChIJMcJAQgondTERgcZZcpMUBMA",
  "categories": [
    "ATM"
  ],
  "fid": "0x3175270a4240c231:0xc00414937259c681",
  "cid": "13836206578700240513",
  "reviewsCount": 2,
  "imagesCount": null,
  "imageCategories": [],
  "scrapedAt": "2024-12-24T14:20:19.540Z",
  "googleFoodUrl": null,
  "hotelAds": [],
  "openingHours": [
    {
      "day": "Thứ Ba",
      "hours": "Mở cửa cả ngày"
    },
    {
      "day": "Thứ Tư",
      "hours": "Mở cửa cả ngày"
    },
    {
      "day": "Thứ Năm",
      "hours": "Mở cửa cả ngày"
    },
    {
      "day": "Thứ Sáu",
      "hours": "Mở cửa cả ngày"
    },
    {
      "day": "Thứ Bảy",
      "hours": "Mở cửa cả ngày"
    },
    {
      "day": "Chủ Nhật",
      "hours": "Mở cửa cả ngày"
    },
    {
      "day": "Thứ Hai",
      "hours": "Mở cửa cả ngày"
    }
  ],
  "peopleAlsoSearch": [],
  "placesTags": [],
  "reviewsTags": [],
  "gasPrices": [],
  "url": "https://www.google.com/maps/search/?api=1&query=ATM%20TP%20LiveBank%20FPT&query_place_id=ChIJMcJAQgondTERgcZZcpMUBMA",
  "kgmid": "/g/11fq9tcdfd"
},
{
  "searchString": "atm",
  "rank": 8,
  "searchPageUrl": "https://www.google.com/maps/search/atm/@10.821089318561162,106.79743596489031,16z?hl=vi",
  "isAdvertisement": false,
  "title": "ATM Techcombank (CDM)",
  "price": null,
  "categoryName": "ATM",
  "address": "280-282 Đỗ Xuân Hợp, P, Thủ Đức, Hồ Chí Minh, Việt Nam",
  "neighborhood": "P, Thủ Đức",
  "street": "280-282 Đỗ Xuân Hợp",
  "city": "Hồ Chí Minh",
  "postalCode": null,
  "state": "Thủ Đức, Hồ Chí Minh",
  "countryCode": "VN",
  "website": "https://techcombank.com/",
  "phone": "+84 1800 588822",
  "phoneUnformatted": "+841800588822",
  "claimThisBusiness": false,
  "location": {
    "lat": 10.8230983,
    "lng": 106.7699189
  },
  "permanentlyClosed": false,
  "temporarilyClosed": false,
  "placeId": "ChIJC7jaEtkndTERNHBuzoXb08w",
  "categories": [
    "ATM"
  ],
  "fid": "0x317527d912dab80b:0xccd3db85ce6e7034",
  "cid": "14759381771563724852",
  "reviewsCount": 0,
  "imagesCount": 1,
  "imageCategories": [],
  "scrapedAt": "2024-12-24T14:20:19.540Z",
  "googleFoodUrl": null,
  "hotelAds": [],
  "openingHours": [
    {
      "day": "Thứ Ba",
      "hours": "Mở cửa cả ngày"
    },
    {
      "day": "Thứ Tư",
      "hours": "Mở cửa cả ngày"
    },
    {
      "day": "Thứ Năm",
      "hours": "Mở cửa cả ngày"
    },
    {
      "day": "Thứ Sáu",
      "hours": "Mở cửa cả ngày"
    },
    {
      "day": "Thứ Bảy",
      "hours": "Mở cửa cả ngày"
    },
    {
      "day": "Chủ Nhật",
      "hours": "Mở cửa cả ngày"
    },
    {
      "day": "Thứ Hai",
      "hours": "Mở cửa cả ngày"
    }
  ],
  "peopleAlsoSearch": [],
  "placesTags": [],
  "reviewsTags": [],
  "additionalInfo": {
    "Khách hàng": [
      {
        "Chào đón những người thuộc giới LGBTQ+": true
      },
      {
        "Nơi an toàn cho người chuyển giới": true
      }
    ]
  },
  "gasPrices": [],
  "url": "https://www.google.com/maps/search/?api=1&query=ATM%20Techcombank%20(CDM)&query_place_id=ChIJC7jaEtkndTERNHBuzoXb08w",
  "imageUrl": "https://lh5.googleusercontent.com/p/AF1QipNoLFd5pffmsiGzmSHzy0BxGL2vreXVc7cdysa1=w426-h240-k-no",
  "kgmid": "/g/11wnzp1lmf"
},
{
  "searchString": "atm",
  "rank": 9,
  "searchPageUrl": "https://www.google.com/maps/search/atm/@10.821089318561162,106.79743596489031,16z?hl=vi",
  "isAdvertisement": false,
  "title": "ATM Techcombank (CDM)",
  "price": null,
  "categoryName": "ATM",
  "address": "44 Xuân Quỳnh, P, Thủ Đức, Hồ Chí Minh, Việt Nam",
  "neighborhood": "P, Thủ Đức",
  "street": "44 Xuân Quỳnh",
  "city": "Hồ Chí Minh",
  "postalCode": null,
  "state": "Thủ Đức, Hồ Chí Minh",
  "countryCode": "VN",
  "website": "https://techcombank.com/",
  "phone": "+84 1800 588822",
  "phoneUnformatted": "+841800588822",
  "claimThisBusiness": false,
  "location": {
    "lat": 10.8153421,
    "lng": 106.7777684
  },
  "totalScore": 1,
  "permanentlyClosed": false,
  "temporarilyClosed": false,
  "placeId": "ChIJj_vpIYkndTERZwPkYLMDdns",
  "categories": [
    "ATM"
  ],
  "fid": "0x3175278921e9fb8f:0x7b7603b360e40367",
  "cid": "8896302182876578663",
  "reviewsCount": 1,
  "imagesCount": 1,
  "imageCategories": [],
  "scrapedAt": "2024-12-24T14:20:19.540Z",
  "googleFoodUrl": null,
  "hotelAds": [],
  "openingHours": [
    {
      "day": "Thứ Ba",
      "hours": "Mở cửa cả ngày"
    },
    {
      "day": "Thứ Tư",
      "hours": "Mở cửa cả ngày"
    },
    {
      "day": "Thứ Năm",
      "hours": "Mở cửa cả ngày"
    },
    {
      "day": "Thứ Sáu",
      "hours": "Mở cửa cả ngày"
    },
    {
      "day": "Thứ Bảy",
      "hours": "Mở cửa cả ngày"
    },
    {
      "day": "Chủ Nhật",
      "hours": "Mở cửa cả ngày"
    },
    {
      "day": "Thứ Hai",
      "hours": "Mở cửa cả ngày"
    }
  ],
  "peopleAlsoSearch": [],
  "placesTags": [],
  "reviewsTags": [],
  "additionalInfo": {
    "Khách hàng": [
      {
        "Chào đón những người thuộc giới LGBTQ+": true
      },
      {
        "Nơi an toàn cho người chuyển giới": true
      }
    ]
  },
  "gasPrices": [],
  "url": "https://www.google.com/maps/search/?api=1&query=ATM%20Techcombank%20(CDM)&query_place_id=ChIJj_vpIYkndTERZwPkYLMDdns",
  "imageUrl": "https://lh5.googleusercontent.com/p/AF1QipPA1ibTBn49nh-KVxFHDaW23kLaqBOXVSLl9Dgu=w426-h240-k-no",
  "kgmid": "/g/11ln1q89lm"
},
{
  "searchString": "atm",
  "rank": 10,
  "searchPageUrl": "https://www.google.com/maps/search/atm/@10.821089318561162,106.79743596489031,16z?hl=vi",
  "isAdvertisement": false,
  "title": "ATM MB",
  "price": null,
  "categoryName": "ATM",
  "address": "130 Lê Văn Việt, Hiệp Phú, Quận 9, Hồ Chí Minh, Việt Nam",
  "neighborhood": "Hiệp Phú, Quận 9",
  "street": "130 Lê Văn Việt",
  "city": "Hồ Chí Minh",
  "postalCode": null,
  "state": "Quận 9, Hồ Chí Minh",
  "countryCode": "VN",
  "claimThisBusiness": false,
  "location": {
    "lat": 10.8454434,
    "lng": 106.77951
  },
  "totalScore": 4.2,
  "permanentlyClosed": false,
  "temporarilyClosed": false,
  "placeId": "ChIJDw4GMwwndTERWrj9f58b1Yw",
  "categories": [
    "ATM"
  ],
  "fid": "0x3175270c33060e0f:0x8cd51b9f7ffdb85a",
  "cid": "10148047707210365018",
  "reviewsCount": 9,
  "imagesCount": 16,
  "imageCategories": [],
  "scrapedAt": "2024-12-24T14:20:19.540Z",
  "googleFoodUrl": null,
  "hotelAds": [],
  "openingHours": [
    {
      "day": "Thứ Ba",
      "hours": "Mở cửa cả ngày"
    },
    {
      "day": "Thứ Tư",
      "hours": "Mở cửa cả ngày"
    },
    {
      "day": "Thứ Năm",
      "hours": "Mở cửa cả ngày"
    },
    {
      "day": "Thứ Sáu",
      "hours": "Mở cửa cả ngày"
    },
    {
      "day": "Thứ Bảy",
      "hours": "Mở cửa cả ngày"
    },
    {
      "day": "Chủ Nhật",
      "hours": "Mở cửa cả ngày"
    },
    {
      "day": "Thứ Hai",
      "hours": "Mở cửa cả ngày"
    }
  ],
  "peopleAlsoSearch": [],
  "placesTags": [],
  "reviewsTags": [],
  "gasPrices": [],
  "url": "https://www.google.com/maps/search/?api=1&query=ATM%20MB&query_place_id=ChIJDw4GMwwndTERWrj9f58b1Yw",
  "imageUrl": "https://lh5.googleusercontent.com/p/AF1QipONBqZgJtGIYlkVrGucTKzGrZqUl5SvO-PjOTop=w408-h544-k-no",
  "kgmid": "/g/11c70cq3w9"
},
{
  "searchString": "atm",
  "rank": 11,
  "searchPageUrl": "https://www.google.com/maps/search/atm/@10.821089318561162,106.79743596489031,16z?hl=vi",
  "isAdvertisement": false,
  "title": "Atm Sacombank",
  "price": null,
  "categoryName": "ATM",
  "address": "272 Hém 445, Phước Long B, Quận 9, Hồ Chí Minh, Việt Nam",
  "neighborhood": "Phước Long B, Quận 9",
  "street": "272 Hém 445",
  "city": "Hồ Chí Minh",
  "postalCode": null,
  "state": "Quận 9, Hồ Chí Minh",
  "countryCode": "VN",
  "claimThisBusiness": true,
  "location": {
    "lat": 10.8232951,
    "lng": 106.7697331
  },
  "totalScore": 5,
  "permanentlyClosed": false,
  "temporarilyClosed": false,
  "placeId": "ChIJS7hJCFYmdTERHodJz05wiL4",
  "categories": [
    "ATM"
  ],
  "fid": "0x317526560849b84b:0xbe88704ecf49871e",
  "cid": "13729346947826419486",
  "reviewsCount": 1,
  "imagesCount": 3,
  "imageCategories": [],
  "scrapedAt": "2024-12-24T14:20:19.540Z",
  "googleFoodUrl": null,
  "hotelAds": [],
  "openingHours": [
    {
      "day": "Thứ Ba",
      "hours": "Mở cửa cả ngày"
    },
    {
      "day": "Thứ Tư",
      "hours": "Mở cửa cả ngày"
    },
    {
      "day": "Thứ Năm",
      "hours": "Mở cửa cả ngày"
    },
    {
      "day": "Thứ Sáu",
      "hours": "Mở cửa cả ngày"
    },
    {
      "day": "Thứ Bảy",
      "hours": "Mở cửa cả ngày"
    },
    {
      "day": "Chủ Nhật",
      "hours": "Mở cửa cả ngày"
    },
    {
      "day": "Thứ Hai",
      "hours": "Mở cửa cả ngày"
    }
  ],
  "peopleAlsoSearch": [],
  "placesTags": [],
  "reviewsTags": [],
  "gasPrices": [],
  "url": "https://www.google.com/maps/search/?api=1&query=Atm%20Sacombank&query_place_id=ChIJS7hJCFYmdTERHodJz05wiL4",
  "imageUrl": "https://lh5.googleusercontent.com/p/AF1QipNbUWC5MlWd91KCg6SS2mUwmWXKN6nMs67fxRI=w408-h306-k-no",
  "kgmid": "/g/11h7s4v7r1"
},
{
  "searchString": "atm",
  "rank": 12,
  "searchPageUrl": "https://www.google.com/maps/search/atm/@10.821089318561162,106.79743596489031,16z?hl=vi",
  "isAdvertisement": false,
  "title": "TPBank LiveBank Tăng Nhơn Phú Quận 9",
  "price": null,
  "categoryName": "ATM",
  "address": "127A3 Tăng Nhơn Phú, Phước Long B, Quận 9, Hồ Chí Minh, Việt Nam",
  "neighborhood": "Phước Long B, Quận 9",
  "street": "127A3 Tăng Nhơn Phú",
  "city": "Hồ Chí Minh",
  "postalCode": null,
  "state": "Quận 9, Hồ Chí Minh",
  "countryCode": "VN",
  "phone": "+84 1900 585885",
  "phoneUnformatted": "+841900585885",
  "claimThisBusiness": false,
  "location": {
    "lat": 10.8305675,
    "lng": 106.7743863
  },
  "totalScore": 3,
  "permanentlyClosed": false,
  "temporarilyClosed": false,
  "placeId": "ChIJ45f-5OMndTERbW8I8CWGoi4",
  "categories": [
    "ATM"
  ],
  "fid": "0x317527e3e4fe97e3:0x2ea28625f0086f6d",
  "cid": "3360395769470807917",
  "reviewsCount": 6,
  "imagesCount": 6,
  "imageCategories": [],
  "scrapedAt": "2024-12-24T14:20:19.540Z",
  "googleFoodUrl": null,
  "hotelAds": [],
  "openingHours": [
    {
      "day": "Thứ Ba",
      "hours": "Mở cửa cả ngày"
    },
    {
      "day": "Thứ Tư",
      "hours": "Mở cửa cả ngày"
    },
    {
      "day": "Thứ Năm",
      "hours": "Mở cửa cả ngày"
    },
    {
      "day": "Thứ Sáu",
      "hours": "Mở cửa cả ngày"
    },
    {
      "day": "Thứ Bảy",
      "hours": "Mở cửa cả ngày"
    },
    {
      "day": "Chủ Nhật",
      "hours": "Mở cửa cả ngày"
    },
    {
      "day": "Thứ Hai",
      "hours": "Mở cửa cả ngày"
    }
  ],
  "peopleAlsoSearch": [],
  "placesTags": [],
  "reviewsTags": [],
  "gasPrices": [],
  "url": "https://www.google.com/maps/search/?api=1&query=TPBank%20LiveBank%20T%C4%83ng%20Nh%C6%A1n%20Ph%C3%BA%20Qu%E1%BA%ADn%209&query_place_id=ChIJ45f-5OMndTERbW8I8CWGoi4",
  "imageUrl": "https://lh5.googleusercontent.com/p/AF1QipMNAofMWCPG4-PTGoQgVGdEN9N2DdRSgQO_nI-4=w408-h544-k-no",
  "kgmid": "/g/11pd_cx2c6"
},
{
  "searchString": "atm",
  "rank": 13,
  "searchPageUrl": "https://www.google.com/maps/search/atm/@10.821089318561162,106.79743596489031,16z?hl=vi",
  "isAdvertisement": false,
  "title": "Techcombank",
  "price": null,
  "categoryName": "ATM",
  "address": "RQWH+4P, Hiệp Phú, Quận 9, Hồ Chí Minh, Việt Nam",
  "neighborhood": "Hiệp Phú, Quận 9",
  "street": "RQWH+4P",
  "city": "Hồ Chí Minh",
  "postalCode": null,
  "state": "Quận 9, Hồ Chí Minh",
  "countryCode": "VN",
  "website": "https://www.techcombank.com.vn/",
  "phone": "+84 1800 588822",
  "phoneUnformatted": "+841800588822",
  "claimThisBusiness": true,
  "location": {
    "lat": 10.8453125,
    "lng": 106.7793125
  },
  "totalScore": 2.6,
  "permanentlyClosed": false,
  "temporarilyClosed": false,
  "placeId": "ChIJB_64Y_ApdTER3WXdTCcFx-o",
  "categories": [
    "ATM"
  ],
  "fid": "0x317529f063b8fe07:0xeac705274cdd65dd",
  "cid": "16917496191591998941",
  "reviewsCount": 39,
  "imagesCount": 22,
  "imageCategories": [],
  "scrapedAt": "2024-12-24T14:20:19.540Z",
  "googleFoodUrl": null,
  "hotelAds": [],
  "openingHours": [
    {
      "day": "Thứ Ba",
      "hours": "00:00 to 23:00"
    },
    {
      "day": "Thứ Tư",
      "hours": "00:00 to 23:00"
    },
    {
      "day": "Thứ Năm",
      "hours": "00:00 to 23:00"
    },
    {
      "day": "Thứ Sáu",
      "hours": "00:00 to 23:00"
    },
    {
      "day": "Thứ Bảy",
      "hours": "00:00 to 23:00"
    },
    {
      "day": "Chủ Nhật",
      "hours": "00:00 to 23:00"
    },
    {
      "day": "Thứ Hai",
      "hours": "00:00 to 23:00"
    }
  ],
  "peopleAlsoSearch": [],
  "placesTags": [],
  "reviewsTags": [],
  "gasPrices": [],
  "url": "https://www.google.com/maps/search/?api=1&query=Techcombank&query_place_id=ChIJB_64Y_ApdTER3WXdTCcFx-o",
  "imageUrl": "https://lh5.googleusercontent.com/p/AF1QipNn10wj5o6XM4dmNLh2S7sPhCrdsi7lezJT-sGH=w408-h306-k-no",
  "kgmid": "/g/11b6dg5pfx"
}]